[
    {
      "nome": "Sushi Queen",
      "indirizzo": "Via Leonardo da Vinci, 13, 67100 L'Aquila AQ",
      "latitudine": 42.36656302721253,
      "longitudine": 13.37216975412492,
      "telefono": "+39 0862 1822218",
      "website": "https://www.sushiqueen.it/",
      "pranzo": "12:00 - 15:30",
      "cena": "19:00 - 23:30"
    },
    {
      "nome": "Sushikaiten",
      "indirizzo": "Via della Crocetta, snc, 67100 L'Aquila AQ",
      "latitudine": 42.34781817031599,
      "longitudine": 13.410750996452027,
      "telefono": "+39 0862 080100",
      "website": "https://www.sushikaiten.it/ristorante/laquila",
      "pranzo": "12:30 - 15:00",
      "cena": "19:30 - 23:30"
    },
    {
      "nome": "Ristorante Orientale Okaeri",
      "indirizzo": "V.le della Croce Rossa, 163, 67100 L'Aquila AQ",
      "latitudine": 42.35720196564084,
      "longitudine": 13.39058560994473,
      "telefono": "3755274825",
      "website": "https://go.ordelivery.shop/#/restaurantPage?string_id=CFNTO",
      "pranzo": "12:00-15:00",
      "cena": "19:00-23:30"
    },
    {
      "nome": "Sushi OK",
      "indirizzo": "Via Beato Cesidio, 23, 67100 L'Aquila AQ",
      "latitudine": 42.3573635216805,
      "longitudine": 13.386487938780864,
      "telefono": "3807759437",
      "website": "Non disponibile",
      "pranzo": "11:00-14:30",
      "cena": "17:30-22:30"

      },
    {
      "nome": "Yuki Sushi Restaurant",
      "indirizzo": "V.le Corrado IV, 32, 67100 L'Aquila AQ",
      "latitudine": 42.357465305931335,
      "longitudine": 13.385583705710207,
      "telefono": "08621820365",
      "website": "Non disponibile",
      "pranzo": "12:00-15:00",
      "cena": "19:00-23:30"
    },
    {
      "nome": "Sensei Sushi & Pokè",
      "indirizzo": "Via Sassa, 10, 67100 L'Aquila AQ",
      "latitudine": 42.35515685965921,
      "longitudine": 13.398641287562608,
      "telefono": "3347304963",
      "website": "https://www.sen6sushi.it",
      "pranzo": "12:00-14:30",
      "cena": "18:30-22:30"
    },
    {
      "nome": "King Sushi & Pokè",
      "indirizzo": "Via Castello, 19, 67100 L'Aquila AQ",
      "latitudine": 42.35277155851131,
      "longitudine": 13.4017572676164,
      "telefono": "3713822647",
      "website": "https://kingsushiaq.com",
      "pranzo": "11:30-15:00",
      "cena": "18:30-23:00"
    }
  ]

